[{"properties": {"id": 1030, "label": "40AL01 - Linkeroever"}, "geometry": {"coordinates": [4.385223684454717, 51.23619419990248, "NaN"], "type": "Point"}, "type": "Feature"}, {"properties": {"id": 1031, "label": "40AL02 - Beveren"}, "geometry": {"coordinates": [4.234832753144059, 51.30452079034428, "NaN"], "type": "Point"}, "type": "Feature"}, {"properties": {"id": 1032, "label": "40AL03 - Beveren"}, "geometry": {"coordinates": [4.201460395126572, 51.25396488066997, "NaN"], "type": "Point"}, "type": "Feature"}, {"properties": {"id": 1033, "label": "40AL04 - Beveren"}, "geometry": {"coordinates": [4.293329476940385, 51.2906675267468, "NaN"], "type": "Point"}, "type": "Feature"}, {"properties": {"id": 1034, "label": "40AL05 - Beveren"}, "geometry": {"coordinates": [4.278889821667828, 51.2631177168737, "NaN"], "type": "Point"}, "type": "Feature"}, {"properties": {"id": 1751, "label": "40DU07 - Deurne"}, "geometry": {"coordinates": [4.448749903341609, 51.22638859104361, "NaN"], "type": "Point"}, "type": "Feature"}, {"properties": {"id": 1749, "label": "40EG05 - Rieme"}, "geometry": {"coordinates": [3.7860846523965317, 51.174053838769616, "NaN"], "type": "Point"}, "type": "Feature"}, {"properties": {"id": 1044, "label": "40GK06 - Genk"}, "geometry": {"coordinates": [5.470620037487627, 50.92789184326573, "NaN"], "type": "Point"}, "type": "Feature"}, {"properties": {"id": 1046, "label": "40GK11 - Genk"}, "geometry": {"coordinates": [5.520312797653718, 50.93148760350312, "NaN"], "type": "Point"}, "type": "Feature"}, {"properties": {"id": 1765, "label": "40GK37 - Genk"}, "geometry": {"coordinates": [5.521087481113465, 50.93174971458815, "NaN"], "type": "Point"}, "type": "Feature"}, {"properties": {"id": 1048, "label": "40HB23 - Hoboken"}, "geometry": {"coordinates": [4.341005064562842, 51.17029803843545, "NaN"], "type": "Point"}, "type": "Feature"}, {"properties": {"id": 1059, "label": "40LD02 - Laakdal"}, "geometry": {"coordinates": [5.021545977609839, 51.120384137099514, "NaN"], "type": "Point"}, "type": "Feature"}, {"properties": {"id": 1062, "label": "40MN01 - Menen"}, "geometry": {"coordinates": [3.109641874498659, 50.79346904431352, "NaN"], "type": "Point"}, "type": "Feature"}, {"properties": {"id": 1066, "label": "40OB01 - Oostrozebeke"}, "geometry": {"coordinates": [3.307385799335752, 50.91722844102691, "NaN"], "type": "Point"}, "type": "Feature"}, {"properties": {"id": 1714, "label": "40OB02 - Wielsbeke"}, "geometry": {"coordinates": [3.376211631086016, 50.91495296088119, "NaN"], "type": "Point"}, "type": "Feature"}, {"properties": {"id": 1157, "label": "40R822 - Antwerpen"}, "geometry": {"coordinates": [4.341279992464663, 51.26428978424869, "NaN"], "type": "Point"}, "type": "Feature"}, {"properties": {"id": 1163, "label": "40R891 - Antwerpen"}, "geometry": {"coordinates": [4.385359826049379, 51.25580664431462, "NaN"], "type": "Point"}, "type": "Feature"}, {"properties": {"id": 1164, "label": "40R892 - Kallo"}, "geometry": {"coordinates": [4.2788899765059245, 51.263036822814975, "NaN"], "type": "Point"}, "type": "Feature"}, {"properties": {"id": 1168, "label": "40R897 - Antwerpen"}, "geometry": {"coordinates": [4.342104511322136, 51.250106498307176, "NaN"], "type": "Point"}, "type": "Feature"}, {"properties": {"id": 1719, "label": "40SA04 - Hoevenen"}, "geometry": {"coordinates": [4.4038681397496084, 51.313928894144894, "NaN"], "type": "Point"}, "type": "Feature"}, {"properties": {"id": 1073, "label": "40SZ01 - Steenokkerzeel"}, "geometry": {"coordinates": [4.504183323312318, 50.91457613716692, "NaN"], "type": "Point"}, "type": "Feature"}, {"properties": {"id": 1764, "label": "40SZ05 - Steenokkerzeel"}, "geometry": {"coordinates": [4.515181795705699, 50.916648405359986, "NaN"], "type": "Point"}, "type": "Feature"}, {"properties": {"id": 1095, "label": "40WZ02 - Mol"}, "geometry": {"coordinates": [5.2215340790930975, 51.1928003331967, "NaN"], "type": "Point"}, "type": "Feature"}, {"properties": {"id": 1768, "label": "40ZB07 - Zeebrugge"}, "geometry": {"coordinates": [3.2182131043832753, 51.32178391495654, "NaN"], "type": "Point"}, "type": "Feature"}, {"properties": {"id": 1770, "label": "40ZB08 - Zeebrugge  (Evendijk-Oost)"}, "geometry": {"coordinates": [3.2126048989527125, 51.33040383164167, "NaN"], "type": "Point"}, "type": "Feature"}, {"properties": {"id": 1107, "label": "40ZL01 - Zelzate"}, "geometry": {"coordinates": [3.8084003239516524, 51.20314142607233, "NaN"], "type": "Point"}, "type": "Feature"}, {"properties": {"id": 1109, "label": "41B001 - Arts-Loi"}, "geometry": {"coordinates": [4.36811326203202, 50.8457780291476, "NaN"], "type": "Point"}, "type": "Feature"}, {"properties": {"id": 1110, "label": "41B004 - Bruxelles (Sainte-Catherine)"}, "geometry": {"coordinates": [4.347777502171077, 50.852059940082825, "NaN"], "type": "Point"}, "type": "Feature"}, {"properties": {"id": 1112, "label": "41B006 - Bruxelles (Parlement UE)"}, "geometry": {"coordinates": [4.374388284562104, 50.838640177166184, "NaN"], "type": "Point"}, "type": "Feature"}, {"properties": {"id": 1711, "label": "41B008 - Brussel (Beliardstraat)"}, "geometry": {"coordinates": [4.375850934612798, 50.84086949241822, "NaN"], "type": "Point"}, "type": "Feature"}, {"properties": {"id": 1113, "label": "41B011 - Berchem-Sainte-Agathe"}, "geometry": {"coordinates": [4.288706017295203, 50.85780610668632, "NaN"], "type": "Point"}, "type": "Feature"}, {"properties": {"id": 1750, "label": "41BUL1 - Brussel (Bld du midi)"}, "geometry": {"coordinates": [4.341821001555243, 50.837909259201766, "NaN"], "type": "Point"}, "type": "Feature"}, {"properties": {"id": 1742, "label": "41CHA1 - Brussel (Ganshoren)"}, "geometry": {"coordinates": [4.306158790881906, 50.87036591660665, "NaN"], "type": "Point"}, "type": "Feature"}, {"properties": {"id": 1116, "label": "41MEU1 - Meudon"}, "geometry": {"coordinates": [4.395716786784692, 50.895001010642815, "NaN"], "type": "Point"}, "type": "Feature"}, {"properties": {"id": 1117, "label": "41N043 - Haren"}, "geometry": {"coordinates": [4.382977505096558, 50.88369465084487, "NaN"], "type": "Point"}, "type": "Feature"}, {"properties": {"id": 1118, "label": "41R001 - Molenbeek-Saint-Jean"}, "geometry": {"coordinates": [4.334103679825118, 50.84971051815787, "NaN"], "type": "Point"}, "type": "Feature"}, {"properties": {"id": 1119, "label": "41R002 - Ixelles"}, "geometry": {"coordinates": [4.384562720663588, 50.82512789503443, "NaN"], "type": "Point"}, "type": "Feature"}, {"properties": {"id": 1122, "label": "41R012 - Uccle"}, "geometry": {"coordinates": [4.358623958109107, 50.79664962465285, "NaN"], "type": "Point"}, "type": "Feature"}, {"properties": {"id": 1741, "label": "41REG1 - Brussel (Bld du R\u00e9gent)"}, "geometry": {"coordinates": [4.367005785367068, 50.84356660319536, "NaN"], "type": "Point"}, "type": "Feature"}, {"properties": {"id": 1754, "label": "41VBX1 - Brussel (Rue de Grand Ile)"}, "geometry": {"coordinates": [4.346090383271134, 50.846081614357104, "NaN"], "type": "Point"}, "type": "Feature"}, {"properties": {"id": 1755, "label": "41VBX2 - Brussel (Rue des Tanneurs)"}, "geometry": {"coordinates": [4.346831357738299, 50.84028350969509, "NaN"], "type": "Point"}, "type": "Feature"}, {"properties": {"id": 1756, "label": "41VBX3 - Brussel (Rue de Laeken)"}, "geometry": {"coordinates": [4.352448633491192, 50.855018198788684, "NaN"], "type": "Point"}, "type": "Feature"}, {"properties": {"id": 1747, "label": "42AL09 - Antwerpen (Van Averbekelaan)"}, "geometry": {"coordinates": [4.376531512921879, 51.22981341815649, "NaN"], "type": "Point"}, "type": "Feature"}, {"properties": {"id": 1748, "label": "42AL10 - Antwerpen (Blancefloerlaan)"}, "geometry": {"coordinates": [4.36845719475613, 51.2198905580466, "NaN"], "type": "Point"}, "type": "Feature"}, {"properties": {"id": 1738, "label": "42BO01 - Bonheiden"}, "geometry": {"coordinates": [4.516483717002172, 51.02706104655742, "NaN"], "type": "Point"}, "type": "Feature"}, {"properties": {"id": 1731, "label": "42HH08 - Houthalen-Helchteren"}, "geometry": {"coordinates": [5.3763866842389705, 51.03160178512395, "NaN"], "type": "Point"}, "type": "Feature"}, {"properties": {"id": 1127, "label": "42M802 - Antwerpen"}, "geometry": {"coordinates": [4.42439900693533, 51.2609897074671, "NaN"], "type": "Point"}, "type": "Feature"}, {"properties": {"id": 1757, "label": "42MK02 - Merksem"}, "geometry": {"coordinates": [4.427522934333511, 51.25050786250817, "NaN"], "type": "Point"}, "type": "Feature"}, {"properties": {"id": 1132, "label": "42N016 - Dessel"}, "geometry": {"coordinates": [5.163978846331757, 51.233652206162375, "NaN"], "type": "Point"}, "type": "Feature"}, {"properties": {"id": 1136, "label": "42N027 - Bree"}, "geometry": {"coordinates": [5.606659219704473, 51.13371669601305, "NaN"], "type": "Point"}, "type": "Feature"}, {"properties": {"id": 1137, "label": "42N035 - Aarschot"}, "geometry": {"coordinates": [4.837618015698614, 50.97754137811429, "NaN"], "type": "Point"}, "type": "Feature"}, {"properties": {"id": 1138, "label": "42N040 - Sint-Pieters-Leeuw (3m)"}, "geometry": {"coordinates": [4.225194246746711, 50.768137513255375, "NaN"], "type": "Point"}, "type": "Feature"}, {"properties": {"id": 1141, "label": "42N046 - Gellik"}, "geometry": {"coordinates": [5.618873985239512, 50.882298825828066, "NaN"], "type": "Point"}, "type": "Feature"}, {"properties": {"id": 1734, "label": "42N047 - Hasselt"}, "geometry": {"coordinates": [5.354360289979902, 50.93618938185387, "NaN"], "type": "Point"}, "type": "Feature"}, {"properties": {"id": 1142, "label": "42N054 - Walshoutem"}, "geometry": {"coordinates": [5.103158609453956, 50.711706093733625, "NaN"], "type": "Point"}, "type": "Feature"}, {"properties": {"id": 1739, "label": "42OT02 - Oud-Turnhout"}, "geometry": {"coordinates": [5.0117926918528894, 51.346547825581986, "NaN"], "type": "Point"}, "type": "Feature"}, {"properties": {"id": 1143, "label": "42R010 - Sint-Stevens-Woluwe"}, "geometry": {"coordinates": [4.4284272835612075, 50.86510788344475, "NaN"], "type": "Point"}, "type": "Feature"}, {"properties": {"id": 1146, "label": "42R020 - Vilvoorde"}, "geometry": {"coordinates": [4.436720763534066, 50.94138711459397, "NaN"], "type": "Point"}, "type": "Feature"}, {"properties": {"id": 1147, "label": "42R801 - Borgerhout"}, "geometry": {"coordinates": [4.4318210469688415, 51.209662530910016, "NaN"], "type": "Point"}, "type": "Feature"}, {"properties": {"id": 1148, "label": "42R802 - Borgerhout"}, "geometry": {"coordinates": [4.431792230792439, 51.209518731583486, "NaN"], "type": "Point"}, "type": "Feature"}, {"properties": {"id": 1720, "label": "42R803 - Antwerpen (Park Spoor Noord)"}, "geometry": {"coordinates": [4.428454177535564, 51.22862981306374, "NaN"], "type": "Point"}, "type": "Feature"}, {"properties": {"id": 1723, "label": "42R804 - Antwerpen (Ring)"}, "geometry": {"coordinates": [4.441947090848593, 51.20630394865475, "NaN"], "type": "Point"}, "type": "Feature"}, {"properties": {"id": 1713, "label": "42R805 - Antwerpen (Belgi\u00eblei)"}, "geometry": {"coordinates": [4.421559251065273, 51.20822947181719, "NaN"], "type": "Point"}, "type": "Feature"}, {"properties": {"id": 1737, "label": "42R806 - Maerlant"}, "geometry": {"coordinates": [4.417539976113196, 51.223286803043635, "NaN"], "type": "Point"}, "type": "Feature"}, {"properties": {"id": 1149, "label": "42R811 - Schoten"}, "geometry": {"coordinates": [4.491362027935439, 51.25210341184476, "NaN"], "type": "Point"}, "type": "Feature"}, {"properties": {"id": 1721, "label": "42R817 - Antwerpen (Groenenborgerlaan)"}, "geometry": {"coordinates": [4.417948637777734, 51.17713088779377, "NaN"], "type": "Point"}, "type": "Feature"}, {"properties": {"id": 1727, "label": "42R818 - Antwerpen (Burchtse Weel)"}, "geometry": {"coordinates": [4.350554534328843, 51.2122581085401, "NaN"], "type": "Point"}, "type": "Feature"}, {"properties": {"id": 1155, "label": "42R820 - Kapellen"}, "geometry": {"coordinates": [4.444810618980053, 51.32041678531231, "NaN"], "type": "Point"}, "type": "Feature"}, {"properties": {"id": 1743, "label": "42R823 - Beveren"}, "geometry": {"coordinates": [4.239930592809773, 51.21325060421094, "NaN"], "type": "Point"}, "type": "Feature"}, {"properties": {"id": 1158, "label": "42R830 - Doel"}, "geometry": {"coordinates": [4.262633729582558, 51.31822863028208, "NaN"], "type": "Point"}, "type": "Feature"}, {"properties": {"id": 1159, "label": "42R831 - Berendrecht"}, "geometry": {"coordinates": [4.339709947119865, 51.34879529193214, "NaN"], "type": "Point"}, "type": "Feature"}, {"properties": {"id": 1710, "label": "42R834 - Boom"}, "geometry": {"coordinates": [4.38010354488249, 51.09200003750444, "NaN"], "type": "Point"}, "type": "Feature"}, {"properties": {"id": 1744, "label": "42R842 - Mechelen (Hendrik Speecqvest)"}, "geometry": {"coordinates": [4.483255334197498, 51.02037444431827, "NaN"], "type": "Point"}, "type": "Feature"}, {"properties": {"id": 1745, "label": "42ZD01 - Zwijndrecht (Binnenplein)"}, "geometry": {"coordinates": [4.325923016227131, 51.215496712234916, "NaN"], "type": "Point"}, "type": "Feature"}, {"properties": {"id": 1746, "label": "42ZD08 - Zwijndrecht (Neerstraat)"}, "geometry": {"coordinates": [4.331523918163801, 51.22730931433447, "NaN"], "type": "Point"}, "type": "Feature"}, {"properties": {"id": 1170, "label": "43H201 - Li\u00e8ge"}, "geometry": {"coordinates": [5.547464182570818, 50.62499156889817, "NaN"], "type": "Point"}, "type": "Feature"}, {"properties": {"id": 1171, "label": "43M204 - Angleur"}, "geometry": {"coordinates": [5.611149762819439, 50.61192270655334, "NaN"], "type": "Point"}, "type": "Feature"}, {"properties": {"id": 1173, "label": "43N060 - Havinnes"}, "geometry": {"coordinates": [3.457624427181725, 50.616718401793946, "NaN"], "type": "Point"}, "type": "Feature"}, {"properties": {"id": 1174, "label": "43N063 - Corroy-Le-Grand"}, "geometry": {"coordinates": [4.668287682824637, 50.655439103400546, "NaN"], "type": "Point"}, "type": "Feature"}, {"properties": {"id": 1769, "label": "43N064 - Rixensart"}, "geometry": {"coordinates": [4.494362377317607, 50.72088837560378, "NaN"], "type": "Point"}, "type": "Feature"}, {"properties": {"id": 1176, "label": "43N066 - Eupen"}, "geometry": {"coordinates": [6.002328686936966, 50.62886025981787, "NaN"], "type": "Point"}, "type": "Feature"}, {"properties": {"id": 1177, "label": "43N067 - Membach"}, "geometry": {"coordinates": [5.99275271918706, 50.61227752813405, "NaN"], "type": "Point"}, "type": "Feature"}, {"properties": {"id": 1178, "label": "43N070 - Mons"}, "geometry": {"coordinates": [3.939714325523836, 50.46519215642695, "NaN"], "type": "Point"}, "type": "Feature"}, {"properties": {"id": 1179, "label": "43N073 - Vezin"}, "geometry": {"coordinates": [4.988422954092519, 50.502716341042664, "NaN"], "type": "Point"}, "type": "Feature"}, {"properties": {"id": 1180, "label": "43N085 - Vielsalm"}, "geometry": {"coordinates": [6.001736288537827, 50.30320782818866, "NaN"], "type": "Point"}, "type": "Feature"}, {"properties": {"id": 1181, "label": "43N093 - Sinsin"}, "geometry": {"coordinates": [5.235168654774105, 50.27447751094971, "NaN"], "type": "Point"}, "type": "Feature"}, {"properties": {"id": 1182, "label": "43N100 - Dourbes"}, "geometry": {"coordinates": [4.594762762155875, 50.095683434191116, "NaN"], "type": "Point"}, "type": "Feature"}, {"properties": {"id": 1183, "label": "43N113 - Sainte-Ode"}, "geometry": {"coordinates": [5.593016914066444, 50.02702901734794, "NaN"], "type": "Point"}, "type": "Feature"}, {"properties": {"id": 1184, "label": "43N121 - Offagne"}, "geometry": {"coordinates": [5.202387466800061, 49.87712849132946, "NaN"], "type": "Point"}, "type": "Feature"}, {"properties": {"id": 1185, "label": "43N132 - Habay-La-Neuve"}, "geometry": {"coordinates": [5.630397740609143, 49.71928118788122, "NaN"], "type": "Point"}, "type": "Feature"}, {"properties": {"id": 1740, "label": "43R202 - Li\u00e8ge"}, "geometry": {"coordinates": [5.571781423606139, 50.63797831100502, "NaN"], "type": "Point"}, "type": "Feature"}, {"properties": {"id": 1190, "label": "43R221 - Li\u00e8ge"}, "geometry": {"coordinates": [5.627835290852657, 50.65844441678666, "NaN"], "type": "Point"}, "type": "Feature"}, {"properties": {"id": 1191, "label": "43R222 - Seraing"}, "geometry": {"coordinates": [5.57022281411258, 50.61341250148202, "NaN"], "type": "Point"}, "type": "Feature"}, {"properties": {"id": 1192, "label": "43R223 - Jemeppe"}, "geometry": {"coordinates": [5.5164047551429976, 50.62067087883932, "NaN"], "type": "Point"}, "type": "Feature"}, {"properties": {"id": 1195, "label": "43R240 - Engis"}, "geometry": {"coordinates": [5.39744605012733, 50.58361434736873, "NaN"], "type": "Point"}, "type": "Feature"}, {"properties": {"id": 1733, "label": "43R401 - Namur"}, "geometry": {"coordinates": [4.865260946011645, 50.462427939604666, "NaN"], "type": "Point"}, "type": "Feature"}, {"properties": {"id": 1198, "label": "44M705 - Roeselare"}, "geometry": {"coordinates": [3.1524015904700082, 50.945359241350495, "NaN"], "type": "Point"}, "type": "Feature"}, {"properties": {"id": 1200, "label": "44N012 - Moerkerke"}, "geometry": {"coordinates": [3.3625358887015975, 51.25457362243645, "NaN"], "type": "Point"}, "type": "Feature"}, {"properties": {"id": 1202, "label": "44N029 - Houtem"}, "geometry": {"coordinates": [2.582322781489737, 51.01628011113804, "NaN"], "type": "Point"}, "type": "Feature"}, {"properties": {"id": 1205, "label": "44N051 - Idegem"}, "geometry": {"coordinates": [3.930293237601761, 50.79891560368916, "NaN"], "type": "Point"}, "type": "Feature"}, {"properties": {"id": 1206, "label": "44N052 - Zwevegem"}, "geometry": {"coordinates": [3.322494319037272, 50.814873869919865, "NaN"], "type": "Point"}, "type": "Feature"}, {"properties": {"id": 1207, "label": "44R701 - Gent"}, "geometry": {"coordinates": [3.729298171690584, 51.058331716264874, "NaN"], "type": "Point"}, "type": "Feature"}, {"properties": {"id": 1715, "label": "44R702 - Gent (Carlierlaan)"}, "geometry": {"coordinates": [3.734971479685305, 51.04068941942753, "NaN"], "type": "Point"}, "type": "Feature"}, {"properties": {"id": 1732, "label": "44R703 - Gent (Lange Violettestraat)"}, "geometry": {"coordinates": [3.734274548131827, 51.046879295386944, "NaN"], "type": "Point"}, "type": "Feature"}, {"properties": {"id": 1208, "label": "44R710 - Destelbergen"}, "geometry": {"coordinates": [3.7752623896453574, 51.06127769765467, "NaN"], "type": "Point"}, "type": "Feature"}, {"properties": {"id": 1210, "label": "44R721 - Wondelgem"}, "geometry": {"coordinates": [3.7161193706960174, 51.088957723664365, "NaN"], "type": "Point"}, "type": "Feature"}, {"properties": {"id": 1212, "label": "44R731 - Evergem"}, "geometry": {"coordinates": [3.739504220441925, 51.12469051189999, "NaN"], "type": "Point"}, "type": "Feature"}, {"properties": {"id": 1213, "label": "44R740 - Sint-Kruiswinkel"}, "geometry": {"coordinates": [3.80873543041274, 51.15013609000081, "NaN"], "type": "Point"}, "type": "Feature"}, {"properties": {"id": 1214, "label": "44R750 - Zelzate"}, "geometry": {"coordinates": [3.8229200468043305, 51.19606326849932, "NaN"], "type": "Point"}, "type": "Feature"}, {"properties": {"id": 1070, "label": "44RL01 - Roeselare"}, "geometry": {"coordinates": [3.1211555989012387, 50.953177280238684, "NaN"], "type": "Point"}, "type": "Feature"}, {"properties": {"id": 1217, "label": "45R501 - Charleroi"}, "geometry": {"coordinates": [4.452171781049856, 50.40931145201499, "NaN"], "type": "Point"}, "type": "Feature"}, {"properties": {"id": 1218, "label": "45R502 - Lodelinsart"}, "geometry": {"coordinates": [4.458680858021719, 50.428995392896255, "NaN"], "type": "Point"}, "type": "Feature"}, {"properties": {"id": 1219, "label": "45R510 - Ch\u00e2telineau"}, "geometry": {"coordinates": [4.521130208130443, 50.41643335953812, "NaN"], "type": "Point"}, "type": "Feature"}, {"properties": {"id": 1220, "label": "45R511 - Marcinelle"}, "geometry": {"coordinates": [4.424700450402466, 50.37759210212818, "NaN"], "type": "Point"}, "type": "Feature"}, {"properties": {"id": 1221, "label": "45R512 - Marchienne"}, "geometry": {"coordinates": [4.3958971170392385, 50.407810199416744, "NaN"], "type": "Point"}, "type": "Feature"}, {"properties": {"id": 1231, "label": "47E007 - Sint-Pieters-Leeuw"}, "geometry": {"coordinates": [4.252628452872855, 50.79529862668815, "NaN"], "type": "Point"}, "type": "Feature"}, {"properties": {"id": 1232, "label": "47E008 - Grimbergen"}, "geometry": {"coordinates": [4.395920014137026, 50.926095116091986, "NaN"], "type": "Point"}, "type": "Feature"}, {"properties": {"id": 1233, "label": "47E009 - Zemst"}, "geometry": {"coordinates": [4.435416984927743, 50.95491668793455, "NaN"], "type": "Point"}, "type": "Feature"}, {"properties": {"id": 1234, "label": "47E013 - Vorst"}, "geometry": {"coordinates": [4.328384665101021, 50.811700894020774, "NaN"], "type": "Point"}, "type": "Feature"}, {"properties": {"id": 1237, "label": "47E703 - Oosteeklo"}, "geometry": {"coordinates": [3.6872957563519857, 51.19031704157261, "NaN"], "type": "Point"}, "type": "Feature"}, {"properties": {"id": 1722, "label": "47E704 - Wachtebeke"}, "geometry": {"coordinates": [3.869928172752206, 51.176100104067444, "NaN"], "type": "Point"}, "type": "Feature"}, {"properties": {"id": 1239, "label": "47E714 - Dudzele"}, "geometry": {"coordinates": [3.248624062941191, 51.27896330355755, "NaN"], "type": "Point"}, "type": "Feature"}, {"properties": {"id": 1240, "label": "47E715 - Zuienkerke"}, "geometry": {"coordinates": [3.1749842016808834, 51.2458642166759, "NaN"], "type": "Point"}, "type": "Feature"}, {"properties": {"id": 1241, "label": "47E716 - Mariakerke"}, "geometry": {"coordinates": [3.6828130172031206, 51.06698790152168, "NaN"], "type": "Point"}, "type": "Feature"}, {"properties": {"id": 1716, "label": "47E814 - Ham"}, "geometry": {"coordinates": [5.129718074812025, 51.08218722351412, "NaN"], "type": "Point"}, "type": "Feature"}, {"properties": {"id": 1767, "label": "48R236 - Aeroport 2"}, "geometry": {"coordinates": [5.41712832492135, 50.619097009467495, "NaN"], "type": "Point"}, "type": "Feature"}, {"properties": {"id": 1766, "label": "48R237 - Aeroport 1"}, "geometry": {"coordinates": [5.470383864868786, 50.65381476013368, "NaN"], "type": "Point"}, "type": "Feature"}, {"properties": {"id": 1752, "label": "48R515 - Aeroport 1"}, "geometry": {"coordinates": [4.425464746587246, 50.45160018054414, "NaN"], "type": "Point"}, "type": "Feature"}, {"properties": {"id": 1753, "label": "48R516 - Aeroport 2"}, "geometry": {"coordinates": [4.484957959246502, 50.46913160387411, "NaN"], "type": "Point"}, "type": "Feature"}, {"properties": {"id": 1725, "label": "T2H801 - Zwijndrecht"}, "geometry": {"coordinates": [4.333959808028439, 51.243740718799664, "NaN"], "type": "Point"}, "type": "Feature"}]